{"pois": [{"id": "POI-BJ-0001", "name": "奥体中心", "aliases": ["国家奥体中心", "国家奥林匹克体育中心", "奥体"], "city": "北京", "district": "朝阳", "lat": 39.9914, "lng": 116.3975, "category": "sports", "addr_hint": "朝阳区北辰东路", "popularity": 95, "radius_m": 1200}, {"id": "POI-BJ-0002", "name": "国家体育场", "aliases": ["鸟巢", "体育场"], "city": "北京", "district": "朝阳", "lat": 39.9929, "lng": 116.3964, "category": "stadium", "addr_hint": "奥林匹克公园内", "popularity": 98, "radius_m": 1200}, {"id": "POI-BJ-0003", "name": "国家游泳中心", "aliases": ["水立方"], "city": "北京", "district": "朝阳", "lat": 39.992, "lng": 116.3871, "category": "stadium", "addr_hint": "奥林匹克公园内", "popularity": 92, "radius_m": 1000}, {"id": "POI-BJ-0004", "name": "国贸", "aliases": ["国贸商圈", "国贸中心"], "city": "北京", "district": "朝阳", "lat": 39.9097, "lng": 116.459, "category": "mall", "addr_hint": "东三环中路", "popularity": 97, "radius_m": 1000}, {"id": "POI-SH-0001", "name": "人民广场", "aliases": ["市政府", "大剧院"], "city": "上海", "district": "黄浦", "lat": 31.2304, "lng": 121.4737, "category": "square", "addr_hint": "黄浦区", "popularity": 96, "radius_m": 800}, {"id": "POI-SH-0002", "name": "东方明珠", "aliases": ["东方明珠塔"], "city": "上海", "district": "浦东", "lat": 31.2397, "lng": 121.4998, "category": "landmark", "addr_hint": "陆家嘴", "popularity": 99, "radius_m": 1500}, {"id": "POI-GZ-0001", "name": "北京路步行街", "aliases": ["北京路"], "city": "广州", "district": "越秀", "lat": 23.1251, "lng": 113.2708, "category": "mall", "addr_hint": "越秀区", "popularity": 93, "radius_m": 900}, {"id": "POI-SZ-0001", "name": "深圳北站", "aliases": ["高铁北站"], "city": "深圳", "district": "龙华", "lat": 22.6091, "lng": 114.0295, "category": "transport", "addr_hint": "龙华区民治", "popularity": 95, "radius_m": 1200}, {"id": "POI-HZ-0001", "name": "西湖", "aliases": ["西湖风景区"], "city": "杭州", "district": "西湖", "lat": 30.2431, "lng": 120.15, "category": "scenic", "addr_hint": "西湖区", "popularity": 99, "radius_m": 1500}, {"id": "POI-BJ-1001", "name": "万达广场", "aliases": ["万达", "Wanda Plaza"], "city": "北京", "district": "朝阳", "lat": 39.9231, "lng": 116.4865, "category": "mall", "addr_hint": "朝阳区建国路", "popularity": 90, "radius_m": 900}, {"id": "POI-BJ-1002", "name": "万达广场", "aliases": ["万达", "Wanda Plaza"], "city": "北京", "district": "石景山", "lat": 39.9135, "lng": 116.2238, "category": "mall", "addr_hint": "石景山区鲁谷", "popularity": 86, "radius_m": 900}, {"id": "POI-SH-1001", "name": "万达广场", "aliases": ["万达", "Wanda Plaza"], "city": "上海", "district": "闵行", "lat": 31.1152, "lng": 121.3897, "category": "mall", "addr_hint": "闵行区都会路", "popularity": 88, "radius_m": 900}, {"id": "POI-GZ-1001", "name": "万达广场", "aliases": ["万达", "Wanda Plaza"], "city": "广州", "district": "番禺", "lat": 22.9378, "lng": 113.365, "category": "mall", "addr_hint": "番禺区汉溪大道", "popularity": 87, "radius_m": 900}, {"id": "POI-SZ-1001", "name": "万达广场", "aliases": ["万达", "Wanda Plaza"], "city": "深圳", "district": "龙岗", "lat": 22.7206, "lng": 114.2467, "category": "mall", "addr_hint": "龙岗大道", "popularity": 85, "radius_m": 900}, {"id": "POI-HZ-1001", "name": "万达广场", "aliases": ["万达", "Wanda Plaza"], "city": "杭州", "district": "滨江", "lat": 30.1881, "lng": 120.2099, "category": "mall", "addr_hint": "滨江区江陵路", "popularity": 84, "radius_m": 900}, {"id": "POI-BJ-1101", "name": "奥体中心", "aliases": ["奥体"], "city": "北京", "district": "朝阳", "lat": 39.9895, "lng": 116.401, "category": "sports", "addr_hint": "北辰东路（主场馆区）", "popularity": 88, "radius_m": 1000}, {"id": "POI-BJ-1102", "name": "奥体中心", "aliases": ["奥体"], "city": "北京", "district": "海淀", "lat": 39.981, "lng": 116.361, "category": "sports", "addr_hint": "北三环西段（训练/拓展区）", "popularity": 80, "radius_m": 1000}, {"id": "POI-BJ-1201", "name": "来福士广场", "aliases": ["来福士", "Raffles City"], "city": "北京", "district": "东城", "lat": 39.9126, "lng": 116.4342, "category": "mall", "addr_hint": "东直门南大街", "popularity": 89, "radius_m": 900}, {"id": "POI-SH-1201", "name": "来福士广场", "aliases": ["来福士", "Raffles City"], "city": "上海", "district": "黄浦", "lat": 31.2318, "lng": 121.475, "category": "mall", "addr_hint": "人民广场商圈", "popularity": 91, "radius_m": 900}]}