{"stations": [{"id": "BJS-001", "city": "北京", "name": "北京-示例站1", "lat": 39.908852, "lng": 116.422926, "vendor": "ZTE", "band": "n28", "status": "online", "updated_at": 1756264375, "desc": "位于地铁口附近，早晚高峰有干扰告警记录。"}, {"id": "BJS-002", "city": "北京", "name": "北京-示例站2", "lat": 39.892686, "lng": 116.431929, "vendor": "Huawei", "band": "n1", "status": "online", "updated_at": 1756264375, "desc": "位于地铁口附近，早晚高峰有干扰告警记录。"}, {"id": "BJS-003", "city": "北京", "name": "北京-示例站3", "lat": 39.89673, "lng": 116.417532, "vendor": "Nokia", "band": "n1", "status": "online", "updated_at": 1756264375, "desc": "位于写字楼密集区域，用户投诉主要集中在室内覆盖不足。"}, {"id": "BJS-004", "city": "北京", "name": "北京-示例站4", "lat": 39.932544, "lng": 116.386062, "vendor": "Ericsson", "band": "n28", "status": "online", "updated_at": 1756264375, "desc": "位于地铁口附近，早晚高峰有干扰告警记录。"}, {"id": "BJS-005", "city": "北京", "name": "北京-示例站5", "lat": 39.913563, "lng": 116.411307, "vendor": "Nokia", "band": "n78", "status": "online", "updated_at": 1756264375, "desc": "位于地铁口附近，早晚高峰有干扰告警记录。"}, {"id": "BJS-006", "city": "北京", "name": "北京-示例站6", "lat": 39.88317, "lng": 116.426845, "vendor": "Ericsson", "band": "n28", "status": "online", "updated_at": 1756264375, "desc": "周边为公园绿地，覆盖稳定，但偶尔有掉话情况。"}, {"id": "BJS-007", "city": "北京", "name": "北京-示例站7", "lat": 39.908463, "lng": 116.383616, "vendor": "ZTE", "band": "n28", "status": "maintenance", "updated_at": 1756264375, "desc": "该站点周边为居民区，覆盖半径约 500 米，晚高峰时段负载较高。"}, {"id": "BJS-008", "city": "北京", "name": "北京-示例站8", "lat": 39.915042, "lng": 116.432671, "vendor": "Huawei", "band": "n78", "status": "online", "updated_at": 1756264375, "desc": "该站点周边为居民区，覆盖半径约 500 米，晚高峰时段负载较高。"}, {"id": "SHS-001", "city": "上海", "name": "上海-示例站1", "lat": 31.233368, "lng": 121.491588, "vendor": "Ericsson", "band": "n28", "status": "maintenance", "updated_at": 1756264375, "desc": "位于写字楼密集区域，用户投诉主要集中在室内覆盖不足。"}, {"id": "SHS-002", "city": "上海", "name": "上海-示例站2", "lat": 31.21982, "lng": 121.450788, "vendor": "Nokia", "band": "n28", "status": "online", "updated_at": 1756264375, "desc": "位于地铁口附近，早晚高峰有干扰告警记录。"}, {"id": "SHS-003", "city": "上海", "name": "上海-示例站3", "lat": 31.217856, "lng": 121.480482, "vendor": "Nokia", "band": "n1", "status": "online", "updated_at": 1756264375, "desc": "周边有大型商场，周末人流量大，容易出现拥塞。"}, {"id": "SHS-004", "city": "上海", "name": "上海-示例站4", "lat": 31.245545, "lng": 121.459182, "vendor": "ZTE", "band": "n28", "status": "online", "updated_at": 1756264375, "desc": "位于写字楼密集区域，用户投诉主要集中在室内覆盖不足。"}, {"id": "SHS-005", "city": "上海", "name": "上海-示例站5", "lat": 31.23939, "lng": 121.462213, "vendor": "Nokia", "band": "n1", "status": "online", "updated_at": 1756264375, "desc": "周边为公园绿地，覆盖稳定，但偶尔有掉话情况。"}, {"id": "SHS-006", "city": "上海", "name": "上海-示例站6", "lat": 31.22644, "lng": 121.467557, "vendor": "Ericsson", "band": "n78", "status": "maintenance", "updated_at": 1756264375, "desc": "周边有大型商场，周末人流量大，容易出现拥塞。"}, {"id": "SHS-007", "city": "上海", "name": "上海-示例站7", "lat": 31.220851, "lng": 121.443706, "vendor": "Ericsson", "band": "n41", "status": "maintenance", "updated_at": 1756264375, "desc": "位于写字楼密集区域，用户投诉主要集中在室内覆盖不足。"}, {"id": "SHS-008", "city": "上海", "name": "上海-示例站8", "lat": 31.230999, "lng": 121.468903, "vendor": "Nokia", "band": "n41", "status": "online", "updated_at": 1756264375, "desc": "位于地铁口附近，早晚高峰有干扰告警记录。"}, {"id": "GZS-001", "city": "广州", "name": "广州-示例站1", "lat": 23.108415, "lng": 113.276145, "vendor": "Ericsson", "band": "n78", "status": "online", "updated_at": 1756264375, "desc": "位于写字楼密集区域，用户投诉主要集中在室内覆盖不足。"}, {"id": "GZS-002", "city": "广州", "name": "广州-示例站2", "lat": 23.124505, "lng": 113.289742, "vendor": "ZTE", "band": "n28", "status": "online", "updated_at": 1756264375, "desc": "位于写字楼密集区域，用户投诉主要集中在室内覆盖不足。"}, {"id": "GZS-003", "city": "广州", "name": "广州-示例站3", "lat": 23.129757, "lng": 113.261086, "vendor": "Huawei", "band": "n1", "status": "online", "updated_at": 1756264375, "desc": "该站点周边为居民区，覆盖半径约 500 米，晚高峰时段负载较高。"}, {"id": "GZS-004", "city": "广州", "name": "广州-示例站4", "lat": 23.103887, "lng": 113.264848, "vendor": "Huawei", "band": "n78", "status": "maintenance", "updated_at": 1756264375, "desc": "位于写字楼密集区域，用户投诉主要集中在室内覆盖不足。"}, {"id": "GZS-005", "city": "广州", "name": "广州-示例站5", "lat": 23.120864, "lng": 113.264587, "vendor": "Huawei", "band": "n78", "status": "maintenance", "updated_at": 1756264375, "desc": "该站点周边为居民区，覆盖半径约 500 米，晚高峰时段负载较高。"}, {"id": "GZS-006", "city": "广州", "name": "广州-示例站6", "lat": 23.128711, "lng": 113.293205, "vendor": "Nokia", "band": "n41", "status": "online", "updated_at": 1756264375, "desc": "位于写字楼密集区域，用户投诉主要集中在室内覆盖不足。"}, {"id": "GZS-007", "city": "广州", "name": "广州-示例站7", "lat": 23.12238, "lng": 113.289311, "vendor": "Ericsson", "band": "n28", "status": "online", "updated_at": 1756264375, "desc": "周边为公园绿地，覆盖稳定，但偶尔有掉话情况。"}, {"id": "GZS-008", "city": "广州", "name": "广州-示例站8", "lat": 23.146058, "lng": 113.291826, "vendor": "ZTE", "band": "n1", "status": "online", "updated_at": 1756264375, "desc": "周边有大型商场，周末人流量大，容易出现拥塞。"}, {"id": "SZS-001", "city": "深圳", "name": "深圳-示例站1", "lat": 22.528105, "lng": 114.081834, "vendor": "Ericsson", "band": "n28", "status": "offline", "updated_at": 1756264375, "desc": "位于地铁口附近，早晚高峰有干扰告警记录。"}, {"id": "SZS-002", "city": "深圳", "name": "深圳-示例站2", "lat": 22.525705, "lng": 114.079219, "vendor": "Ericsson", "band": "n1", "status": "online", "updated_at": 1756264375, "desc": "周边为公园绿地，覆盖稳定，但偶尔有掉话情况。"}, {"id": "SZS-003", "city": "深圳", "name": "深圳-示例站3", "lat": 22.554076, "lng": 114.081804, "vendor": "Nokia", "band": "n28", "status": "online", "updated_at": 1756264375, "desc": "周边有大型商场，周末人流量大，容易出现拥塞。"}, {"id": "SZS-004", "city": "深圳", "name": "深圳-示例站4", "lat": 22.524613, "lng": 114.047253, "vendor": "Nokia", "band": "n1", "status": "online", "updated_at": 1756264375, "desc": "位于地铁口附近，早晚高峰有干扰告警记录。"}, {"id": "SZS-005", "city": "深圳", "name": "深圳-示例站5", "lat": 22.569683, "lng": 114.046978, "vendor": "Huawei", "band": "n28", "status": "maintenance", "updated_at": 1756264375, "desc": "周边有大型商场，周末人流量大，容易出现拥塞。"}, {"id": "SZS-006", "city": "深圳", "name": "深圳-示例站6", "lat": 22.522345, "lng": 114.034073, "vendor": "Ericsson", "band": "n78", "status": "online", "updated_at": 1756264375, "desc": "位于地铁口附近，早晚高峰有干扰告警记录。"}, {"id": "SZS-007", "city": "深圳", "name": "深圳-示例站7", "lat": 22.554293, "lng": 114.058708, "vendor": "ZTE", "band": "n28", "status": "online", "updated_at": 1756264375, "desc": "该站点周边为居民区，覆盖半径约 500 米，晚高峰时段负载较高。"}, {"id": "SZS-008", "city": "深圳", "name": "深圳-示例站8", "lat": 22.568299, "lng": 114.078076, "vendor": "Huawei", "band": "n28", "status": "maintenance", "updated_at": 1756264375, "desc": "周边为公园绿地，覆盖稳定，但偶尔有掉话情况。"}, {"id": "HZS-001", "city": "杭州", "name": "杭州-示例站1", "lat": 30.257854, "lng": 120.139426, "vendor": "Huawei", "band": "n28", "status": "online", "updated_at": 1756264375, "desc": "位于写字楼密集区域，用户投诉主要集中在室内覆盖不足。"}, {"id": "HZS-002", "city": "杭州", "name": "杭州-示例站2", "lat": 30.297908, "lng": 120.159589, "vendor": "Nokia", "band": "n78", "status": "online", "updated_at": 1756264375, "desc": "位于地铁口附近，早晚高峰有干扰告警记录。"}, {"id": "HZS-003", "city": "杭州", "name": "杭州-示例站3", "lat": 30.269656, "lng": 120.144655, "vendor": "Nokia", "band": "n28", "status": "online", "updated_at": 1756264375, "desc": "该站点周边为居民区，覆盖半径约 500 米，晚高峰时段负载较高。"}, {"id": "HZS-004", "city": "杭州", "name": "杭州-示例站4", "lat": 30.24785, "lng": 120.14251, "vendor": "Huawei", "band": "n78", "status": "online", "updated_at": 1756264375, "desc": "周边有大型商场，周末人流量大，容易出现拥塞。"}, {"id": "HZS-005", "city": "杭州", "name": "杭州-示例站5", "lat": 30.263015, "lng": 120.149245, "vendor": "Ericsson", "band": "n78", "status": "online", "updated_at": 1756264375, "desc": "该站点周边为居民区，覆盖半径约 500 米，晚高峰时段负载较高。"}, {"id": "HZS-006", "city": "杭州", "name": "杭州-示例站6", "lat": 30.257217, "lng": 120.15632, "vendor": "ZTE", "band": "n28", "status": "online", "updated_at": 1756264375, "desc": "该站点周边为居民区，覆盖半径约 500 米，晚高峰时段负载较高。"}, {"id": "HZS-007", "city": "杭州", "name": "杭州-示例站7", "lat": 30.298002, "lng": 120.15862, "vendor": "Nokia", "band": "n41", "status": "online", "updated_at": 1756264375, "desc": "周边有大型商场，周末人流量大，容易出现拥塞。"}, {"id": "HZS-008", "city": "杭州", "name": "杭州-示例站8", "lat": 30.277053, "lng": 120.127754, "vendor": "Nokia", "band": "n41", "status": "online", "updated_at": 1756264375, "desc": "周边有大型商场，周末人流量大，容易出现拥塞。"}]}